road,id,model_type,name,lat,lon,length,condition,lrp,ZONE,NEWFIELD1,AFFECTED
N2,2000918,bridge,SUB CITY BOX CULVERT,24.8884163,91.8801104,9,A,LRP230b,I,D,Riverbank Erosion
N2,2000921,bridge,NAYER POLL BOX CULVERT,24.8929997,91.8783049,2,A,LRP231a,I,D,Riverbank Erosion
N2,2000924,bridge,MIRA BAZAR CULVERT,24.8951663,91.880166,4,A,LRP231c,I,D,Riverbank Erosion
N2,2000926,bridge,MIRA BAZAR BOX CULVERT,24.8953052,91.8822493,3,A,LRP231d,I,D,Riverbank Erosion
N2,2000928,bridge,MIRA BAZAR BOX CULVERT,24.8953608,91.8848052,2,A,LRP231e,I,D,Riverbank Erosion
N2,2000931,bridge,FORHADKHA POLL BOX CULVERT,24.8951941,91.8877774,8,A,LRP232a,I,D,Riverbank Erosion
N2,2000934,bridge,TILA GOR BOX CULVERT,24.8951941,91.897833,2,A,LRP233a,I,D,Riverbank Erosion
N2,2000936,bridge,TILA GOR BOX CULVERT,24.8966108,91.9039444,6,B,LRP233b,I,D,Riverbank Erosion
N2,2000939,bridge,ISLAM PUR BOX CULVERT,24.9005,91.9141667,2,A,LRP234a,I,A,Riverbank Erosion
N2,2000916,bridge,SUCLTY BOX CULVERT,24.8874719,91.8804993,9,A,LRP230a,I,B,Riverbank Erosion
N2,2000241,bridge,SONARAMPUR,24.0373052,91.0073056,3,B,LRP074e,II,D,Riverbank Erosion
N1,1000113,bridge,Bridge start,23.5359719,90.6822493,0,B,LRP035a,II,B,Riverbank Erosion
N1,1000124,bridge,Bridge start,23.5315549,90.7174854,0,B,LRP038d,II,B,Riverbank Erosion
N1,1000773,bridge,Sangu Bridge (2 bridges at crossing),22.15886115,92.068041,211,B,LRP286a,II,B,Riverbank Erosion
N1,1000777,bridge,KATGOR CULVERT,22.15093055,92.0696799,9,A,LRP287a,II,B,Riverbank Erosion
N1,1000402,bridge,MUHURI BRIDGE (2 bridges at crossing),22.94962465,91.5017778,192,B,LRP163a,II,A,
N1,1000411,bridge,DumGhat Bridge(L) (2 bridges at crossing),22.91473615,91.5264021,222,A,LRP168a,II,A,
N104,4000130,bridge,Bridge start,22.84141635,91.09829135,0,B,LRP048a,III,A,
N1,1000015,bridge,Kachpur bridge,23.7033472,90.51730525,0,B,LRP008a,II,D,
N1,1000025,bridge,NOYAPARA CULVERT,23.6943608,90.5376108,6,A,LRP011a,II,D,
N1,1000027,bridge,NAYABARI KASPUR BOX CULVERT,23.6922774,90.5410552,8,A,LRP011b,II,D,
N1,1000030,bridge,NAYABARI BOX CULVERT,23.691083,90.5450136,11,B,LRP012a,II,D,
N1,1000035,bridge,Madanpur Bridge.(L) (3 bridges at crossing),23.6854997,90.5512778,28,A,LRP013a,II,D,
N1,1000046,bridge,Bridge start,23.65594445,90.5744299,0,B,LRP017a,II,D,
N1,1000049,bridge,Darikandi Bridge (R) (2 bridges at crossing),23.65398615,90.5773882,20,A,LRP017c,II,D,
N1,1000053,bridge,DARIKANDI BRIDGE (R) (2 bridges at crossing),23.65079165,90.58281875,20,B,LRP018a,II,D,
N1,1000325,bridge,Bridge start,23.16809655,91.3213604,0,B,LRP128a,II,D,
N1,1000334,bridge,DIMATOLY (2) BOX CULVERT,23.1433886,91.326666,4,B,LRP131a,II,D,
N1,1000355,bridge,UTTOR KAIEATI CULVERT,23.08074935,91.35490275,4,A,LRP139b,II,D,
N1,1000381,bridge,Bridge start,22.99612465,91.40058335,0,B,LRP151a,II,D,
N1,1000391,bridge,Lemua Bridge(L) (2 bridges at crossing),22.96211115,91.4420969,99,C,LRP156a,II,D,
N1,1000427,bridge,MADDAM SONAPAR(1) BOX CULVERT,22.868416,91.5431663,2,A,LRP173b,II,D,
N1,1000430,bridge,DHARBAR TILA CULVERT,22.86111772,91.54512585,4,A,LRP174a,II,D,
N1,1000432,bridge,MADDUM SONAPHAR-3,22.8595833,91.5454719,2,A,LRP174b,II,D,
N1,1000435,bridge,MAMAFOUN ASTANA CULVERT,22.856,91.5457219,2,A,LRP175a,II,D,
N1,1000437,bridge,MAMAFAKIR ASTANA SLAB CULVERT,22.8550556,91.545833,2,A,LRP175b,II,D,
N1,1000440,bridge,MASTANNAGOR BONCUL(1),22.84848575,91.54640245,8,A,LRP176a,II,D,
N1,1000443,bridge,MUSTAU NOGAR(2),22.8452219,91.5475274,3,A,LRP176c,II,D,
N1,1000630,bridge,Bridge start,22.398833,91.7576667,0,B,LRP231b,II,D,
N1,1000636,bridge,Bridge start,22.3889997,91.7606111,0,B,LRP232c,II,D,
N1,1000642,bridge,Bridge start,22.37634854,91.77047963,0,B,LRP234a,II,D,
N1,1000732,bridge,Korna Bridge (2 bridges at crossing),22.26216183,92.00706971,15,B,LRP272a,II,D,
N1,1000746,bridge,Kanchon Nagar Bridge (2 bridges at crossing),22.23163825,92.024916,13,B,LRP276b,II,D,
N1,1000750,bridge,Bridge start,22.22783265,92.0259299,0,B,LRP277a,II,D,
N1,1000758,bridge,MAZAR POINT BRIDGE (2 bridges at crossing),22.2082361,92.03572185,50,C,LRP279a,II,D,
N1,1000761,bridge,MAZAR POINT BRIDGE (2 bridges at crossing),22.20591665,92.037083,50,C,LRP279c,II,D,
N1,1000785,bridge,Pathanerpul Bridge (2 bridges at crossing),22.13063825,92.07045765,34,A,LRP290a,II,D,
N1,1000788,bridge,Noyakhalar Muk Bridge (2 bridges at crossing),22.1284021,92.0708882,28,A,LRP290c,II,D,
N1,1000793,bridge,NOYA KHALAR MUK (KARANIERHAT) BOX CULVERT,22.1208049,92.0719438,20,A,LRP291b,II,D,
N1,1000796,bridge,KARANERHAT CULVERT,22.1133056,92.0726938,5,A,LRP292a,II,D,
N1,1000810,bridge,RAJGHATA BRIDGE (2 bridges at crossing),22.06987435,92.10391665,30,A,LRP298a,II,D,
N1,1000814,bridge,Khoria Nagar Bridge (2 bridges at crossing),22.0640139,92.10704165,38,A,LRP299a,II,D,
N1,1000817,bridge,NOYA PARA BOX CULVERT,22.0605556,92.1078056,2,A,LRP299c,II,D,
N1,1000820,bridge,PODUA NOYA PARA BOX CULVERT,22.0568611,92.1090833,8,A,LRP300a,II,D,
N1,1000822,bridge,PODUA BAZAR BOX CULVERT,22.0522778,92.1091111,13,A,LRP300b,II,D,
N1,1000825,bridge,PODUA BAZAR BOX CULVERT,22.0486386,92.1082222,6,A,LRP301a,II,D,
N1,1000828,bridge,BARO AWLIA(R),22.0443052,92.1073056,14,A,LRP301c,II,D,
N1,1000831,bridge,TALOCKDNR PARA BOX CULVERT (2 bridges at crossing),22.0379163,92.104,2,A,LRP302a,II,D,
N1,1000834,bridge,AMIRABAD BOX CULVERT,22.0320827,92.1041667,2,A,LRP303a,II,D,
N1,1000840,bridge,AMIRABAD LOHAGORA BOX CULVERT,22.0205549,92.1015,10,A,LRP305a,II,D,
N1,1000843,bridge,LOHAGORA L.S BOX CULVERT,22.0077222,92.0927497,3,A,LRP306a,II,D,
N1,1000846,bridge,DIGIRPARK BOX CULVERT,22.0039167,92.0904163,13,A,LRP307a,II,D,
N1,1000852,bridge,ZADUNAGOR BUS STATION BOX CULVERT,21.9911386,92.08599965,14,A,LRP308c,II,D,
N1,1000857,bridge,Aadunagor bridge (2 bridges at crossing),21.98613855,92.08348575,24,A,LRP309b,II,D,
N1,1000861,bridge,HATIAR PULL PC GIDER BRIDGE (2 bridges at crossing),21.98108265,92.07998545,22,A,LRP310a,II,D,
N1,1000890,bridge,AZIZNAGOR BOX CULVERT,21.9177216,92.0597778,2,A,LRP318a,II,D,
N1,1000900,bridge,HARBHANG CHOR,21.8908886,92.0596667,14,A,LRP321b,II,D,
N1,1000903,bridge,GHOIL MARA BOX CULVERT,21.8810271,92.0589722,9,A,LRP322a,II,D,
N1,1000906,bridge,HARBANG,21.874916,92.0591111,3,A,LRP323a,II,D,
N1,1000909,bridge,HARBANG,21.8625,92.0595,3,A,LRP324a,II,D,
N1,1000912,bridge,HARBANGCHORA (2 bridges at crossing),21.8594722,92.0603611,56,A,LRP325a,II,D,
N1,1000927,bridge,BODOI TOLA RCC GIDER BRIDGE (2 bridges at crossing),21.82548545,92.07247155,46,A,LRP329a,II,D,
N1,1000930,bridge,BODAITALI BOX CULVERT,21.8208882,92.0741104,12,A,LRP329c,II,D,
N1,1000933,bridge,BODOITOLI BOX CULVERT,21.8179716,92.073916,14,A,LRP330a,II,D,
N1,1000966,bridge,PASIYAKALI (2) (2 bridges at crossing),21.72981875,92.083833,39,A,LRP340c,II,D,
N1,1000981,bridge,Bridge start,21.67448545,92.07658265,0,B,LRP347a,II,D,
N1,1000989,bridge,Bridge start,21.6560278,92.0751382,0,B,LRP349a,II,D,
N1,1000993,bridge,PAGOLARIBIL,21.649458,92.0733049,4,A,LRP350a,II,D,
N1,1001027,bridge,Eidgaon Bazar Bridge (2 bridges at crossing),21.55509725,92.06786045,46,A,LRP362a,II,D,
N1,1001070,bridge,Mitacmari Ramu Bridge (2 bridges at crossing),21.441958,92.1007639,59,A,LRP376c,II,D,
N1,1001074,bridge,MARULA (WEST),21.4375552,92.0984997,3,A,LRP377a,II,D,
N1,1001076,bridge,MARULA BOX CULVERT,21.434583,92.0973886,2,A,LRP377b,II,D,
N1,1001192,bridge,DHALLA SLAB CULVERT,21.3752493,92.0727771,2,C,LRP395e,II,D,
N1,1001195,bridge,PANAR CHORI SLAB CULVERT,21.3745549,92.0739716,1,A,LRP395g,II,D,
N1,1001199,bridge,PANCR CHAR SLAB CULVERT,21.3736938,92.0768327,1,C,LRP396a,II,D,
N1,1001203,bridge,TELA BAGAN SLAB CULVERT,21.3698327,92.0796104,1,A,LRP396d,II,D,
N1,1001205,bridge,PARARHORA CULVERT,21.3678882,92.0803327,1,B,LRP396e,II,D,
N1,1001210,bridge,TULA BAGAN,21.3644167,92.081416,1,B,LRP397b,II,D,
N1,1001212,bridge,TOLA BAGAN,21.3615,92.0806382,2,B,LRP397c,II,D,
N1,1001217,bridge,NORTH CONIA PARA BOX CULVERT,21.3563333,92.0790827,4,A,LRP398b,II,D,
N1,1001222,bridge,CONIA PARA,21.3462497,92.0790132,11,C,LRP399a,II,D,
N1,1001230,bridge,Khulna Plong Bridge,21.3296521,92.07886045,0,B,LRP401a,II,D,
N1,1001234,bridge,JASOYA PALONG RCC GIDER BRIDGE,21.32395765,92.08552745,5,C,LRP402a,II,D,
N1,1001237,bridge,Jasoya check post.,21.3207493,92.0893052,1,B,LRP402c,II,D,
N1,1001240,bridge,Bridge start,21.31786045,92.092208,0,B,LRP403a,II,D,
N1,1001244,bridge,Bridge start,21.3123472,92.09651355,0,B,LRP403d,II,D,
N1,1001252,bridge,Bridge start,21.29531915,92.0993886,0,B,LRP405b,II,D,
N1,1001257,bridge,COURT BAZAR,21.2839441,92.1005278,10,A,LRP407a,II,D,
N1,1001259,bridge,COURT BAZAR,21.28272176,92.10068713,10,A,LRP407b,II,D,
N1,1001266,bridge,EJILA,21.26780485,92.10891665,11,C,LRP409b,II,D,
N1,1001271,bridge,Bridge start,21.2638472,92.1143333,0,B,LRP410a,II,D,
N1,1001274,bridge,Bridge start,21.26230555,92.11623615,0,B,LRP410c,II,D,
N1,1001278,bridge,JADIMORA (3),21.2565278,92.1229438,17,A,LRP411a,II,D,
N1,1001281,bridge,JADIMORA (1),21.2550278,92.1245827,2,A,LRP411c,II,D,
N1,1001283,bridge,WEST OGALA,21.2537778,92.1266382,11,C,LRP411d,II,D,
N1,1001287,bridge,OKYIA STATION,21.25044445,92.1307493,8,C,LRP412b,II,D,
N1,1001290,bridge,UKLIA-SHAHABMARKAT,21.24804135,92.13416635,2,C,LRP412d,II,D,
N1,1001295,bridge,Bridge start,21.24227745,92.141458,0,B,LRP413b,II,D,
N1,1001334,bridge,Changkhali Boro Bridge (2 bridges at crossing),21.1696521,92.15444445,22,A,LRP424c,II,D,
N1,1001337,bridge,JAM TOLI BOX CULVERT,21.168416,92.1532778,3,A,LRP424e,II,D,
N1,1001341,bridge,DAIM PARA CULVERT,21.1650833,92.15218055,5,A,LRP425b,II,D,
N1,1001346,bridge,DAIM PARA CULVERT,21.1604167,92.1525,3,A,LRP425f,II,D,
N1,1001350,bridge,PALONG KHALI CULVERT,21.1586667,92.1525,3,C,LRP426b,II,D,
N1,1001354,bridge,PALONG KHALI BAZAR (1),21.1521944,92.1535278,9,C,LRP426e,II,D,
N1,1001358,bridge,Bridge start,21.14422185,92.15866665,0,B,LRP427b,II,D,
N1,1001362,bridge,GIRA TALI RCC GIDER BRIDGE (2 bridges at crossing),21.14127745,92.16006945,15,C,LRP428a,II,D,
N1,1001365,bridge,GIVA TOLI BOX CULVERT,21.1381108,92.1648611,1,A,LRP428c,II,D,
N1,1001369,bridge,Kata Khali Bridge (2 bridges at crossing),21.1375552,92.1683049,12,D,LRP429b,II,D,
N1,1001373,bridge,KHARA KANDI RCC GIDER BRIDGE (2 bridges at crossing),21.13680525,92.1740271,15,B,LRP429e,II,D,
N1,1001379,bridge,DMONIR GONA RCC GIDER BRIDGE,21.1333747,92.18076325,3,A,LRP430c,II,D,
N1,1001384,bridge,BALUR KHALI -(1) RCC GIDER BRIDGE,21.1319716,92.1846108,5,B,LRP431a,II,D,
N1,1001390,bridge,WHIKE KANG BRIDGE,21.1239993,92.1919997,3,A,LRP432c,II,D,
N1,1001392,bridge,MOA EX-KANG-BAZAR (2 bridges at crossing),21.1229993,92.1926663,13,C,LRP432d,II,D,
N1,1001394,bridge,HOA EX KANG BAZAE,21.122166,92.1931941,3,A,LRP432e,II,D,
N1,1001396,bridge,Hoacx Kang Barbar Bridge (2 bridges at crossing),21.1214993,92.1935552,73,B,LRP432f,II,D,
N1,1001402,bridge,TASSI-PARA BAR,21.1161389,92.1969997,3,A,LRP433d,II,D,
N1,1001405,bridge,TAS SE BRIDGE HOANGK (2 bridges at crossing),21.1148889,92.19776355,13,B,LRP433f,II,D,
N1,1001409,bridge,LAMBA-BIL PORA,21.1118611,92.2006389,1,A,LRP434a,II,D,
N1,1001411,bridge,LAMBA - BIL - (1) BOX CULVERT,21.1090556,92.2045278,3,A,LRP434b,II,D,
N1,1001413,bridge,LAMBA BIL (3) BOX CULVERT,21.1078333,92.2058611,1,A,LRP434c,II,D,
N2,2000004,bridge,JATRAMURA BRIDGE (2 bridges at crossing),23.71844375,90.515625,36,B,LRP002a,II,D,
N2,2000021,bridge,GOLA GANDE BRIDGE (2 bridges at crossing),23.7853886,90.5689993,18,B,LRP012b,II,D,
N2,2000025,bridge,SHAWGHAT BOX CULVERT,23.7891108,90.5741104,4,A,LRP012e,II,D,
N2,2000029,bridge,ADURI BOX CULVERT,23.7977219,90.5808882,5,B,LRP014a,II,D,
N2,2000032,bridge,ADURI BOX CULVERT,23.8044167,90.5869163,4,B,LRP015a,II,D,
N2,2000035,bridge,BANTI BOX CULVERT,23.8141389,90.5946941,3,A,LRP016a,II,D,
N2,2000037,bridge,BANTI BRIDGE (2 bridges at crossing),23.817666,90.59812465,72,C,LRP016b,II,D,
N2,2000041,bridge,PATCHRUKHI CULVERT,23.8240271,90.6041389,3,C,LRP017a,II,D,
N2,2000044,bridge,PUTCHRUCLAI CULVERT,23.829666,90.6093056,4,A,LRP018a,II,D,
N2,2000048,bridge,SON PARA,23.83620333,90.61582641,8,B,LRP019b,II,D,
N2,2000051,bridge,FURINGDIA BOX CULVERT,23.8420274,90.6225549,8,A,LRP020a,II,D,
N2,2000054,bridge,PURINDA BAZAR BOX CULVERT,23.8455274,90.6272216,4,A,LRP021a,II,D,
N2,2000056,bridge,PURINDHA BOX CULVERT,23.8498608,90.6315827,8,A,LRP021b,II,D,
N2,2000059,bridge,SHAT GRAM BOX CULVERT,23.8552222,90.6386941,4,B,LRP022a,II,D,
N2,2000063,bridge,BAGBARI BOX CULVERT,23.8551389,90.6522778,4,A,LRP024a,II,D,
N2,2000167,bridge,Bitimargal Bridge (2 bridges at crossing),24.0401108,90.84301355,19,A,LRP056b,II,D,
N2,2000209,bridge,Mahmudabad Bridge (2 bridges at crossing),24.0565833,90.94598575,16,A,LRP067a,II,D,
N2,2000221,bridge,JAKANNATHPUR,24.0570139,90.9697771,4,A,LRP070a,II,D,
N2,2000225,bridge,KOMOLPUR CULVERT (1),24.0561944,90.9752216,6,C,LRP070d,II,D,
N2,2000231,bridge,NEAR BHAIRAB SLAB CULVERT,24.0508333,90.9901108,14,A,LRP072a,II,D,
N2,2000278,bridge,Bridge start,24.0584028,91.1188049,0,B,LRP087b,II,D,
N2,2000316,bridge,KATAKHALI BRIDGE (2 bridges at crossing),24.04079135,91.2082083,34,A,LRP097b,II,D,
N102,3000003,bridge,PORISPUR BOX CULVERT,23.4866663,91.1133611,3,A,LRPSb,II,D,
N102,3000007,bridge,Brorechon,23.4937774,91.1064722,2,A,LRP002a,II,D,
N102,3000009,bridge,SHABAR BAZAR,23.496333,91.1059167,2,A,LRP002b,II,D,
N102,3000011,bridge,ZUMUR BOX CULVERT,23.4976941,91.1055833,1,A,LRP002c,II,D,
N102,3000015,bridge,DEAB POR SLAB CULVERT,23.5112222,91.0981108,2,B,LRP004a,II,D,
N102,3000073,bridge,GAFUR NAGOR RCC GIDER BRIDGE (2 bridges at crossing),23.6588472,90.98223545,51,C,LRP028a,II,D,
N102,3000079,bridge,CMB Bazar Bridge (2 bridges at crossing),23.6658611,90.99368025,40,A,LRP029b,II,D,
N102,3000106,bridge,SONG CHAIL RCC GIDER BRIDGE,23.6956663,91.03811075,36,C,LRP035a,II,D,
N102,3000109,bridge,HAJIBARI BOX CULVERT,23.69997205,91.04416635,6,A,LRP035c,II,D,
N102,3000114,bridge,BRAMMON PARA BOX CULVERT,23.70427775,91.05004165,12,A,LRP036b,II,D,
N102,3000117,bridge,BRAMMON PARA BOX CULVERT,23.70529762,91.05139557,12,A,LRP036d,II,D,
N102,3000121,bridge,MUDUPPUR BOX CULVERT,23.70833335,91.05529165,13,C,LRP037a,II,D,
N102,3000174,bridge,TILLACK PUR RCC GIDER BRIDGE (2 bridges at crossing),23.80695835,91.15134725,50,A,LRP052a,II,D,
N102,3000178,bridge,CHATURA CULVERT,23.814375,91.15294445,37,B,LRP053a,II,D,
N102,3000183,bridge,MATIA PARA BOX CULVERT,23.82987435,91.1551389,5,A,LRP055a,II,D,
N102,3000189,bridge,Bridge start,23.8457913,91.15729165,0,B,LRP056b,II,D,
N102,3000231,bridge,Bridge start,23.95565275,91.11622225,0,B,LRP070a,II,D,
N102,3000239,bridge,Bridge Start,23.97082554,91.1011813,0,B,LRP073a,II,D,
N104,4000002,bridge,S.S.SK ROAD SLAB CULVERT,23.0092778,91.3952497,3,B,LRPSa,II,D,
N104,4000007,bridge,PAZGACIA SLAB CULVERT,23.0098611,91.3737216,3,C,LRP002a,II,D,
N105,5000003,bridge,MODONPUR COLLEGE,23.6993052,90.5515278,6,A,LRP001a,II,D,
N105,5000006,bridge,LALADI CULVERT,23.7072222,90.5596389,6,A,LRP002a,II,D,
N105,5000009,bridge,KHAJLA PUR,23.7161944,90.5700827,6,A,LRP003a,II,D,
N105,5000021,bridge,Bridge Start,23.744708,90.58551355,0,B,LRP007b,II,D,
N105,5000027,bridge,Bridge Start,23.75968055,90.57737435,0,B,LRP009b,II,D,
N105,5000032,bridge,Bridge Start,23.76937435,90.57192985,0,B,LRP010b,II,D,
N105,5000050,bridge,CHAPRY,23.835958,90.5455413,4,A,LRP020,II,D,
N105,5000065,bridge,ULAKOLA,23.871416,90.5068056,209,A,LRP026c,II,D,
N105,5000073,bridge,Ulukhola Bridge (2 bridges at crossing),23.8859163,90.4924441,175,A,LRP029a,II,D,
N105,5000078,bridge,SHAMMUDDA,23.899083,90.4819021,4,A,LRP031c,II,D,
N105,5000087,bridge,"Gazipur 17 km, Tangail 75 km, Bangabandhu 98 km, / Bridge start",23.91722185,90.46874935,0,B,LRP034,II,D,
N105,5000092,bridge,DIRASURAM,23.9240549,90.4591944,13,A,LRP035a,II,D,
N106,9000002,bridge,TANARI BOTTOLA CULVERT,22.3974997,91.8200271,2,C,LRPSa,II,D,
N106,9000004,bridge,TANARI BOTTOLA CULVERT,22.3990552,91.8198049,3,A,LRPSb,II,D,
N106,9000006,bridge,TANARI BOX CULVERT,22.4004722,91.8193604,2,C,LRPSc,II,D,
N106,9000010,bridge,BALUCHARA,22.4060278,91.818666,3,A,LRP001b,II,D,
N106,9000013,bridge,BALUCHARA,22.4121667,91.8185549,12,A,LRP002a,II,D,
N106,9000015,bridge,NOTUN PARA (2 bridges at crossing),22.41555555,91.819166,18,B,LRP002b,II,D,
N106,9000019,bridge,AMAR BAZAR,22.4223882,91.8200271,4,A,LRP003a,II,D,
N106,9000021,bridge,LALIYAR HAT,22.4244438,91.8197771,3,C,LRP003b,II,D,
N106,9000024,bridge,BORDIGHIR PAR,22.4309993,91.8199993,4,C,LRP004a,II,D,
N106,9000028,bridge,BORODIGHIR PAR,22.4382497,91.8206104,9,C,LRP005a,II,D,
N106,9000030,bridge,CHOWDIRIR HAT,22.4444441,91.8190549,6,C,LRP005b,II,D,
N106,9000033,bridge,PASHIM CHARAKUL CUL,22.4515,91.8175827,8,A,LRP006a,II,D,
N106,9000037,bridge,PASSIM SURAGOL,22.4555,91.8171382,9,B,LRP007a,II,D,
N106,9000043,bridge,MODANHAT (2 bridges at crossing),22.47113825,91.815125,12,A,LRP008b,II,D,
N106,9000058,bridge,Subadaggu Bridge (2 bridges at crossing),22.50475,91.82683265,64,C,LRP014a,II,D,
N106,9000062,bridge,ISAPUR BRIDGE (2 bridges at crossing),22.50736115,91.8330271,34,C,LRP015a,II,D,
N106,9000068,bridge,BODORGONA BOX CUL,22.51418055,91.84538855,3,A,LRP016b,II,D,
N106,9000074,bridge,Bridge start,22.5162361,91.8546528,0,B,LRP018a,II,D,
N106,9000084,bridge,Bridge start,22.52636045,91.8727771,0,B,LRP020b,II,D,
N106,9000088,bridge,Bridge start,22.5288743,91.8782771,0,B,LRP021a,II,D,
N106,9000092,bridge,JALANIR HAT,22.5322771,91.8897636,4,C,LRP022a,II,D,
N106,9000095,bridge,SULTAN PUR CULVERT,22.5325549,91.8921386,3,A,LRP022c,II,D,
N106,9000100,bridge,Beroli Bridge (2 bridges at crossing),22.53351355,91.899458,25,C,LRP023c,II,D,
N106,9000103,bridge,Bridge start,22.5342358,91.9020417,0,B,LRP023e,II,D,
N106,9000115,bridge,POSHIM RAYJON,22.5354997,91.9238049,9,C,LRP026a,II,D,
N106,9000124,bridge,Rauzan dalarmuk Bridge,22.5386802,91.95605555,15,A,LRP030a,II,D,
N106,9000176,bridge,RANGUNID,22.549833,92.0133056,3,A,LRP039b,II,D,
N106,9000179,bridge,THANDHA CHOR ARCH MASONRY,22.55270835,92.01663855,2,D,LRP039d,II,D,
N106,9000183,bridge,THANDHA CHOR ARCH MASONRY,22.5530278,92.0179716,2,D,LRP040a,II,D,
N106,9000191,bridge,Rahirhat Bridge (2 bridges at crossing),22.5638611,92.0381386,128,C,LRP042b,II,D,
N106,9000210,bridge,MOGI CHORI,22.5935413,92.0715549,3,A,LRP047a,II,D,
N106,9000221,bridge,GHAGRA ARCH MASO,22.6094444,92.0973886,1,A,LRP051b,II,D,
N106,9000227,bridge,KOLA BAGAN ARCH MASONRY,22.6221104,92.1066111,5,C,LRP053a,II,D,
N106,9000229,bridge,MOSHIS PARA CULVERT,22.622916,92.1081111,9,A,LRP053b,II,D,
N106,9000233,bridge,MOIS PARA ARCH MASONRY,22.6277771,92.1130833,2,B,LRP054b,II,D,
N106,9000237,bridge,KOBAGON ARCH MASONRY,22.6314438,92.1136667,1,A,LRP054e,II,D,
N106,9000247,bridge,Bridge start,22.64773575,92.13662465,0,B,LRP059a,II,D,
N2,2000448,bridge,CHARA BOX CULVERT,24.2585833,91.3780827,4,A,LRP130b,I,D,
N2,2000453,bridge,GORIPUR BOX CULVERT,24.2655278,91.3821382,3,B,LRP131a,I,D,
N2,2000458,bridge,SHARALDI BOX CULVERT,24.2710271,91.3923052,2,A,LRP132b,I,D,
N2,2000562,bridge,MONDUL KAFON,24.3974163,91.5618333,3,A,LRP159c,I,D,
N2,2000566,bridge,Putajuri Bridge (2 bridges at crossing),24.4034167,91.5644444,20,A,LRP160b,I,D,
N2,2000568,bridge,PUTA JURI BOX CULVERT,24.4060972,91.5648889,2,C,LRP160c,I,D,
N2,2000572,bridge,PUTA JURI SCHOOL,24.4076111,91.5649167,3,A,LRP161a,I,D,
N2,2000576,bridge,RAJSURAT BOX CULVERT,24.4166389,91.5661111,11,A,LRP162a,I,D,
N2,2000578,bridge,SHUKCHAR,24.41938386,91.56687636,2,A,LRP162b,I,D,
N2,2000581,bridge,SHUKCHAR,24.4220827,91.5675549,4,A,LRP162d,I,D,
N2,2000585,bridge,COLTANPUR BOX CULVERT,24.42624935,91.5682493,2,A,LRP163a,I,D,
N2,2000594,bridge,BARO CHAR BOX CULVERT,24.43921044,91.56926967,3,A,LRP164c,I,D,
N2,2000597,bridge,Rokonpur Bridge (2 bridges at crossing),24.4421663,91.5698604,20,B,LRP164e,I,D,
N2,2000600,bridge,RAKONPUR BOX CULVERT,24.4451108,91.57058265,4,A,LRP165a,I,D,
N2,2000606,bridge,BARIMA BOX CULVERT,24.4527222,91.5719993,4,C,LRP166a,I,D,
N2,2000610,bridge,VORGOU BOX CULVERT,24.4568333,91.5723882,6,A,LRP166d,I,D,
N2,2000614,bridge,BOROKADI BOX CULVERT,24.4605833,91.5744716,7,A,LRP167a,I,D,
N2,2000618,bridge,PANIUNDAPC GIRDIR (2 bridges at crossing),24.4694299,91.57372155,21,A,LRP167d,I,D,
N2,2000622,bridge,KORAGU BOX CULVERT,24.4733049,91.57433265,6,A,LRP168a,I,D,
N2,2000627,bridge,KURGGUB BOX CULVERT,24.4798327,91.5762771,2,A,LRP169a,I,D,
N2,2000629,bridge,SATAIHULL,24.4821938,91.5769993,3,A,LRP169b,I,D,
N2,2000632,bridge,SATAIHUL,24.4852774,91.5779716,1,A,LRP169d,I,D,
N2,2000634,bridge,SATHAIL CULVERT,24.4862774,91.5782771,2,A,LRP169e,I,D,
N2,2000639,bridge,SATAIHUL,24.4915136,91.58001325,2,A,LRP170c,I,D,
N2,2000642,bridge,SATAIHAL BOX CULVERT,24.4930274,91.580416,3,A,LRP170e,I,D,
N2,2000644,bridge,SATAIHAL BOX CULVERT,24.4934719,91.5804716,3,A,LRP170f,I,D,
N2,2000646,bridge,MARAURA,24.4939997,91.5805827,2,A,LRP170g,I,D,
N2,2000651,bridge,MARAURA CULVERT,24.4961663,91.5811104,3,A,LRP171a,I,D,
N2,2000653,bridge,MURAURA CULVERT,24.4969441,91.5815827,3,A,LRP171b,I,D,
N2,2000658,bridge,DEWPARA CUVERT,24.4996941,91.5833608,2,A,LRP171f,I,D,
N2,2000662,bridge,GARIPUR,24.5055556,91.5848886,6,A,LRP172a,I,D,
N2,2000666,bridge,MALAR BATAR,24.5086944,91.5851663,8,B,LRP172d,I,D,
N2,2000679,bridge,DEVPARA BOXCULVERT,24.526916,91.5935274,2,A,LRP174e,I,D,
N2,2000683,bridge,NORTH DEVPARA 2 CULVER,24.5333886,91.5982219,2,A,LRP175b,I,D,
N2,2000685,bridge,NOLSUZA 2 CULVERT,24.5347497,91.5991663,2,A,LRP175c,I,D,
N2,2000689,bridge,NALSUZA,24.5363052,91.6007222,2,A,LRP176a,I,D,
N2,2000691,bridge,SODORPUR NOTUNBAZAR,24.5372497,91.6016389,2,A,LRP176b,I,D,
N2,2000727,bridge,batapur,24.580791,91.5980969,3,A,LRP181a,I,D,
N2,2000731,bridge,Batapur Bridge (2 bridges at crossing),24.5849719,91.59972185,35,A,LRP181d,I,D,
N2,2000943,bridge,HATIM PARA (2 bridges at crossing),24.9068333,91.9244993,12,A,LRP236a,I,D,
N2,2000981,bridge,THAKURRAMATI BOX CULVERT,24.9488608,92.0035833,3,A,LRP245a,I,D,
N2,2000984,bridge,THAKURAMATI BOX CULVERT,24.951875,92.0073611,9,A,LRP246a,I,D,
N2,2000987,bridge,SHIK NAGAR,24.9565278,92.0110278,4,A,LRP246c,I,D,
N2,2000991,bridge,KHAN BAGAN,24.96325,92.0188604,6,A,LRP247b,I,D,
N2,2000994,bridge,PANI CHARA,24.9645278,92.024166,9,A,LRP248a,I,D,
N2,2000997,bridge,OMON PUR,24.972666,92.0328327,7,A,LRP249a,I,D,
N2,2001000,bridge,OMON PUR,24.9750271,92.0346663,3,A,LRP250a,I,D,
N2,2001003,bridge,HORIPUR,24.9832216,92.037833,4,A,LRP251a,I,D,
N2,2001006,bridge,HORIPUR (2 bridges at crossing),24.98990245,92.042583,91,A,LRP252a,I,D,
N2,2001064,bridge,LAMAPARA BRIGE (2 bridges at crossing),25.12973545,92.1196382,26,A,LRP270a,I,D,
N2,2001067,bridge,Chuna Hati Bridge (2 bridges at crossing),25.13174935,92.12037435,22,A,LRP270c,I,D,
N2,2001071,bridge,Ching Gil Bridge (2 bridges at crossing),25.13864236,92.11997014,79,A,LRP271a,I,D,
N2,2001104,bridge,Noljuri Bridge (2 bridges at crossing),25.1771521,92.05569445,40,A,LRP280a,I,D,
N2,2001108,bridge,NOLJURI (2 bridges at crossing),25.17631875,92.0540972,24,A,LRP281a,I,D,
N204,6000025,bridge,20 NOVEMBER AMTOLI,24.1241104,91.4126111,10,B,LRP009b,I,D,
N204,6000038,bridge,CHANTRI CHARA CULVERTR,24.1274438,91.4520556,6,A,LRP014a,I,D,
N204,6000043,bridge,CHANDRI CULVERT,24.1279438,91.4640278,2,A,LRP016a,I,D,
N204,6000050,bridge,Ram Bhanga Bridge,24.13486599,91.47721465,50,A,LRP017b,I,D,
N204,6000055,bridge,RAMAGANJA CULVERT,24.1387774,91.4803604,9,B,LRP018a,I,D,
N204,6000057,bridge,LABONGO GIRDER BRIDGE,24.1420552,91.4829577,40,A,LRP018b,I,D,
N204,6000060,bridge,CHANDRI CULVERT (2 bridges at crossing),24.14440245,91.4833886,2,A,LRP018d,I,D,
N207,7000025,bridge,DHLKI BOX CULVERT,24.2949441,91.5846663,19,C,LRP008a,I,D,
N208,8000067,bridge,UDNACHARA BRIDGE (2 bridges at crossing),24.5579028,91.88222155,22,A,LRP019a,I,D,
N208,8000071,bridge,Kuchimora Bridge,24.568291,91.88604135,39,A,LRP020a,I,D,
N208,8000074,bridge,TAI JURI BOX CULVERT,24.5719993,91.8884441,14,B,LRP020c,I,D,
N208,8000086,bridge,GOYESPUR,24.5958052,91.898583,10,A,LRP023b,I,D,
N208,8000095,bridge,CHAN BAG CULVERT,24.61181945,91.90498615,3,B,LRP025b,I,D,
N208,8000101,bridge,MOTOP PUR BRIDGE (2 bridges at crossing),24.623416,91.9078056,30,A,LRP026b,I,D,
N208,8000104,bridge,MOTOP PUR BRIDGE (2 bridges at crossing),24.62486045,91.9081389,30,A,LRP027a,I,D,
N208,8000107,bridge,RAJAPUR BOX CULVERT,24.6281938,91.9090556,4,A,LRP027c,I,D,
N208,8000109,bridge,RAJAPUR BOX CULVERT,24.6302216,91.9096111,3,A,LRP027d,I,D,
N208,8000120,bridge,Bridge start,24.6449858,91.91681875,0,B,LRP029c,I,D,
N208,8000126,bridge,Mirzapur box culvert,24.6543056,91.9239716,6,A,LRP030c,I,D,
N104,4000108,bridge,Bridge start,22.87669375,91.0968469,0,B,LRP043c,III,D,
N104,4000113,bridge,TOWN HALL MORE CULVERT,22.87139802,91.09690368,1,C,LRP044b,III,D,
N104,4000115,bridge,TOWN HALL MORE CULVERT,22.87070765,91.0968886,1,C,LRP044c,III,D,
N104,4000118,bridge,BOXSI MAZIR BOX CULVERT,22.8674438,91.0969719,6,A,LRP044e,III,D,
N104,4000124,bridge,POKIR PUR BOX CULVERT,22.861,91.0962497,4,B,LRP045d,III,D,
N2,2000248,bridge,Sonarampur Bridge (2 bridges at crossing),24.03802745,91.0244993,80,C,LRP076a,II,C,
N2,2000252,bridge,SUNSRAMPUR CULVERT,24.0386941,91.0281938,3,A,LRP077a,II,C,
N2,2000263,bridge,BATHTOLA-2 BOX CULVERT,24.044833,91.0677771,10,A,LRP081b,II,C,
N2,2000284,bridge,Bridge start,24.055875,91.1379719,0,B,LRP089a,II,C,
N2,2000288,bridge,BARIUSA RCC GIDER BRIDGE (2 bridges at crossing),24.0549583,91.14529135,43,C,LRP090a,II,C,
N2,2000292,bridge,Bridge start,24.0542222,91.1506111,0,B,LRP091a,II,C,
N2,2000297,bridge,BARURA BOX CULVERT,24.05240275,91.1662361,12,A,LRP092b,II,C,
N2,2000303,bridge,Chatol Bridge (2 bridges at crossing),24.045333,91.17723545,27,A,LRP094a,II,C,
N2,2000314,bridge,RAMPUR P C GIRDER BRIDGE (2 bridges at crossing),24.0429997,91.2045,64,C,LRP097a,II,C,
N2,2000320,bridge,Khilsima Bridge,24.04202745,91.214,27,C,LRP098a,II,C,
N2,2000324,bridge,Bridge start,24.04438855,91.2215132,0,B,LRP099a,II,C,
N102,3000202,bridge,MODINAGOR RCC GIDER BRIDGE,23.87495765,91.14093025,27,B,LRP060,II,C,
N102,3000211,bridge,Bridge start,23.8947358,91.130041,0,B,LRP063a,II,C,
N102,3000216,bridge,Bridge start,23.9058611,91.12577715,0,B,LRP064b,II,C,
N102,3000248,bridge,Bridge Start,24.00177775,91.10956945,0,B,LRP077a,II,C,
N1,1000212,bridge,TIPRA BAZAR BOX CULVERT,23.4793327,91.1234716,1,A,LRP084b,II,A,
N1,1000220,bridge,Bridge start,23.4487358,91.14719415,0,B,LRP089a,II,A,
N1,1000228,bridge,Bridge start,23.42349935,91.163125,0,B,LRP093a,II,A,
N1,1000235,bridge,Bridge start,23.41308335,91.1847913,0,B,LRP095a,II,A,
N1,1000243,bridge,Bridge start,23.4036528,91.21772155,0,B,LRP099a,II,A,
N1,1000252,bridge,Bridge start,23.37786045,91.2404441,0,B,LRP102a,II,A,
N1,1000259,bridge,Bridge start,23.35854165,91.25329165,0,B,LRP105a,II,A,
N1,1000266,bridge,Bridge start,23.33587465,91.2701799,0,B,LRP108a,II,A,
N1,1000283,bridge,Bridge start,23.29602745,91.29151355,0,B,LRP113a,II,A,
N1,1000319,bridge,BOSONTA PUR BOX CULVERT,23.18665245,91.3212632,6,C,LRP126a,II,A,
N1,1000342,bridge,FOKIR BAZAR SLAB CULVERT,23.1193049,91.3329993,4,B,LRP134a,II,A,
N2,2000356,bridge,Bridge start,24.10704165,91.29998595,0,B,LRP110a,II,A,
N2,2000360,bridge,Bridge start,24.1122778,91.30495835,0,B,LRP111a,II,A,
N2,2000366,bridge,Bridge start,24.12693751,91.31902062,0,B,LRP113a,I,A,
N2,2000370,bridge,Bridge start,24.1358052,91.3235132,0,B,LRP114a,I,A,
N2,2000374,bridge,Bridge start,24.14177745,91.3270688,0,B,LRP115a,I,A,
N2,2000378,bridge,Bridge start,24.14491635,91.3367219,0,B,LRP116a,I,A,
N2,2000388,bridge,JAGADISHPUR 2 BOX CULVERT,24.15425,91.3487774,4,A,LRP118a,I,A,
N2,2000391,bridge,BELGOR CULVERT,24.1592222,91.3489163,2,A,LRP118c,I,A,
N2,2000396,bridge,NARAONPUR CULVERT,24.1655278,91.3490274,8,A,LRP119b,I,A,
N2,2000399,bridge,ITAKHOLA BOX CULVERT,24.1700827,91.3490274,3,A,LRP119d,I,A,
N2,2000408,bridge,PATONPUR,24.191083,91.3505278,6,A,LRP122a,I,A,
N2,2000417,bridge,Shapur Bridge (2 bridges at crossing),24.2088889,91.3546944,30,A,LRP124b,I,A,
N2,2000419,bridge,SAHAPUR BOX CULVERT,24.21094445,91.3561111,3,A,LRP124c,I,A,
N2,2000424,bridge,HORI TOLA BOX CULVERT,24.2185827,91.36275,7,A,LRP125b,I,A,
N2,2000429,bridge,SHIBPUR BOX CULVERT,24.223166,91.3647222,8,A,LRP126a,I,A,
N2,2000439,bridge,RIAZ NAGAR BOX CULVERT,24.23987178,91.36895126,2,A,LRP128a,I,A,
N2,2000464,bridge,SATANKONADI BRIDGE,24.27658265,91.4042639,3,A,LRP134a,I,A,
N2,2000491,bridge,Bridge start,24.2708882,91.47883265,0,B,LRP142d,I,A,
N2,2000497,bridge,Bridge start,24.280041,91.48802745,0,B,LRP144a,I,A,
N2,2000501,bridge,BASHINA BOX CULVERT,24.2861663,91.4980552,2,C,LRP145a,I,A,
N2,2000508,bridge,MIRPUR BOX CULVERT,24.2978886,91.5111944,17,A,LRP147a,I,A,
N2,2000510,bridge,MIRPUR BOX CULVERT,24.3004444,91.5119444,2,A,LRP147b,I,A,
N2,2000520,bridge,Bridge start,24.32269375,91.53011045,0,B,LRP150b,I,A,
N2,2000526,bridge,JANJJALIA,24.3336663,91.5334997,1,A,LRP152a,I,A,
N2,2000528,bridge,JANNJALIA,24.3367497,91.5336108,4,A,LRP152b,I,A,
N2,2000531,bridge,KABIR PUR,24.340333,91.5342497,11,A,LRP152d,I,A,
N2,2000534,bridge,ISLAMABAD,24.3429719,91.5348052,3,A,LRP153a,I,A,
N2,2000536,bridge,KABIR PUR CULVERT,24.3459719,91.535333,2,A,LRP153b,I,A,
N2,2000540,bridge,CHALTA BOX CULVERT,24.35368055,91.5381941,3,A,LRP154a,I,A,
N2,2000547,bridge,Bridge start,24.36826325,91.54462465,0,B,LRP156a,I,A,
N2,2000553,bridge,Bridge start,24.38201325,91.5514028,0,B,LRP157b,I,A,
N2,2000557,bridge,SHOURATUL,24.39025233,91.55708279,8,A,LRP158a,I,A,
N2,2000945,bridge,KHASIM RLAQAR,24.9069444,91.930416,6,A,LRP236b,I,A,
N2,2000948,bridge,Khadim Nagar Bridge (2 bridges at crossing),24.9132778,91.93665245,12,A,LRP237a,I,A,
N2,2000952,bridge,Khadem Nagar Bridge (2 bridges at crossing),24.91525,91.94788855,15,B,LRP238a,I,A,
N2,2000955,bridge,KASIM NAGAR,24.9157778,91.9473608,3,A,LRP238c,I,A,
N2,2000960,bridge,HATIMA BOX CULVERT,24.9197493,91.9585278,14,A,LRP240a,I,A,
N2,2000962,bridge,PORGONA BAZAR BOX CULVERT,24.921166,91.9611389,6,A,LRP240b,I,A,
N2,2000965,bridge,PILOR CHAK BOX CULVERT,24.92949935,91.9708327,12,B,LRP241a,I,A,
N2,2000968,bridge,HAGIVILA BOX CULVERT,24.9305827,91.9725549,3,A,LRP241c,I,A,
N2,2000971,bridge,BOTESSOR BOX CULVERT,24.9342219,91.9789716,3,A,LRP242a,I,A,
N2,2000974,bridge,PULI BOX CULVERT,24.93677745,91.983958,6,A,LRP243a,I,A,
N2,2000977,bridge,BOTESSOR BOX CULVERT,24.9389997,91.9905274,9,A,LRP243c,I,A,
N2,2001075,bridge,Mukterpur Bridge (2 bridges at crossing),25.1409441,92.1197771,14,A,LRP272a,I,A,
N2,2001079,bridge,Bilay More Bridge (2 bridges at crossing),25.15037181,92.11239825,64,A,LRP273a,I,A,
N2,2001083,bridge,RANG PANI STEEL BEAM AND RCC SLAB (2 bridges at crossing),25.15244445,92.10843055,48,A,LRP274a,I,A,
N2,2001086,bridge,Rang Pasi Bridge (2 bridges at crossing),25.15375,92.10727775,17,A,LRP274c,I,A,
N2,2001089,bridge,RANG PASI (2 bridges at crossing),25.1548194,92.10554165,38,B,LRP274e,I,A,
N2,2001093,bridge,Bangla Bazar Bridge (3 bridges at crossing),25.1591667,92.09986095,81,A,LRP275a,I,A,
N2,2001097,bridge,ASUM BAZAR (2 bridges at crossing),25.16470835,92.0959302,37,A,LRP276a,I,A,
N2,2001117,bridge,bridge 241,25.1719438,92.0199716,40,A,LRP285a,I,A,
N2,2001119,bridge,bridge 242,25.1710827,92.0188049,5,A,LRP285b,I,A,
N204,6000002,bridge,JOGIDISH PUR TEMORIA,24.1483608,91.3513889,4,C,LRPSa,I,A,
N204,6000005,bridge,Telaria Chara Bridge (2 bridges at crossing),24.14587465,91.3513056,40,A,LRP001a,I,A,
N204,6000008,bridge,UTTOR SUMA BRIDGE,24.1439997,91.3511667,4,C,LRP001c,I,A,
N204,6000010,bridge,NOYAHADI CULVERT,24.1397774,91.3513333,13,C,LRP001d,I,A,
N204,6000013,bridge,DOKHIR SHURMA CULVERT,24.1369163,91.3516111,10,B,LRP002a,I,A,
N204,6000072,bridge,CHANDPUR STEEL BEAM AND RCC SLAB (2 bridges at crossing),24.173166,91.5020833,39,A,LRP023c,I,A,
N204,6000090,bridge,PICE MILL BOX CULVERT,24.2211938,91.5084722,3,A,LRP030a,I,A,
N204,6000092,bridge,NORPATI BOX CULVERT,24.2274993,91.5060833,3,C,LRP030b,I,A,
N204,6000095,bridge,NORPATI BOX CULVERT,24.2308049,91.5048611,24,C,LRP031a,I,A,
N204,6000100,bridge,DORGAPUR RCC GIDER BRIDGE (2 bridges at crossing),24.25240275,91.49124965,18,A,LRP033a,I,A,
N204,6000106,bridge,NEAR SHAIS TAGAMJ BOX CULVERT,24.2615,91.482416,4,A,LRP035a,I,A,
N207,7000003,bridge,Mirpur Bridge (2 bridges at crossing),24.2975691,91.513625,22,B,LRPSb,I,A,
N207,7000007,bridge,Binagou Bridge (2 bridges at crossing),24.2958469,91.52387435,20,A,LRP001a,I,A,
N207,7000011,bridge,Natun Bazar Bridge (2 bridges at crossing),24.29365245,91.53715245,30,B,LRP002a,I,A,
N207,7000016,bridge,Karangi Bridge (2 bridges at crossing),24.292958,91.54656915,38,B,LRP003a,I,A,
N1,1000042,bridge,Langalbandhu bridge,23.65870835,90.57036045,0,B,LRP016b,II,,
N1,1001417,bridge,LAMBA BIL BOX,21.1053611,92.2073889,1,C,LRP435a,II,,
N2,2000217,bridge,OLD BRAMMAPULRA,24.05733335,90.96331945,429,C,LRP069a,II,,
N2,2000306,bridge,Bridge start,24.0428052,91.1804577,0,B,LRP094c,II,,
N2,2000997,bridge,OMON PUR,24.972666,92.0328327,7,A,LRP249a,I,,
N2,2001060,bridge,Boro Gung Bridge (2 bridges at crossing),25.1256382,92.11630555,88,A,LRP269a,I,,
N2,2001125,bridge,Bridge start,25.16115275,92.0173049,0,B,LRP287a,I,,
N1,1000061,bridge,SHADIPUR BOX CULVERT,23.633833,90.59736075,10,B,LRP020b,II,C,
N2,2000065,bridge,RAINADI BOX CULVERT,23.8548333,90.6585556,4,A,LRP024b,II,C,
N2,2000068,bridge,KANDA PARA BOX CULVERT,23.8544722,90.6635,4,A,LRP025a,II,C,
N2,2000070,bridge,NAWPARA BOX CULVERT,23.8539167,90.6673049,2,A,LRP025b,II,C,
N2,2000077,bridge,KURIRPARA BOX CULVERT,23.8774438,90.6666389,2,A,LRP029a,II,C,
N2,2000079,bridge,CHAITABOR BOX CULVERT,23.8818882,90.6665556,2,A,LRP029b,II,C,
N2,2000084,bridge,Panchdona Bridge (2 bridges at crossing),23.89365245,90.6669299,32,A,LRP031a,II,C,
N2,2000087,bridge,BOLTIRISH KANE CULVERT,23.8943052,90.6717771,3,B,LRP031c,II,C,
N2,2000090,bridge,SHIKANDI BOX CULVERT,23.8950552,90.6740827,2,C,LRP032a,II,C,
N2,2000093,bridge,UTTAR BAYANDA CULVERT,23.9048611,90.6851386,4,A,LRP033a,II,C,
N2,2000100,bridge,BAGDI BOX CULVERT,23.921666,90.6968886,13,A,LRP035b,II,C,
N2,2000103,bridge,BAGDI - 2 CULVERT,23.924166,90.699083,3,A,LRP036a,II,C,
N2,2000106,bridge,BASAIL BRIDGE OVER ROAD (2 bridges at crossing),23.9308188,90.70466665,25,A,LRP037a,II,C,
N2,2000110,bridge,Bala Nagar Bridge (2 bridges at crossing),23.9393469,90.7100139,61,A,LRP038a,II,C,
N2,2000128,bridge,ITAKHOLA CULVERT,23.977916,90.7312771,2,A,LRP043a,II,C,
N2,2000139,bridge,Simbi Bridge (2 bridges at crossing),23.9939441,90.75952775,96,A,LRP046a,II,C,
N2,2000175,bridge,BRIDE OVER ARIAL RCC GIDER BRIDGE (2 bridges at crossing),24.047333,90.86272225,140,C,LRP058a,II,C,
N2,2000178,bridge,SHIBPUR RCC GIDER BRIDGE (2 bridges at crossing),24.0485413,90.8642639,39,A,LRP058c,II,C,
N2,2000185,bridge,Khamachor Bridge (2 bridges at crossing),24.0514722,90.87436045,40,A,LRP060a,II,C,
N2,2000192,bridge,Noya Kandi Bridge (2 bridges at crossing),24.05293055,90.89891635,14,A,LRP062a,II,C,
N2,2000196,bridge,Patila Dua Bridge (2 bridges at crossing),24.0533056,90.90361115,13,A,LRP063a,II,C,
N2,2000202,bridge,NARAYAN PUR RCC GIDER BRIDGE (2 bridges at crossing),24.0547222,90.92137435,12,A,LRP064c,II,C,
N102,3000084,bridge,YOUSUF PUR BRIDGE (2 bridges at crossing),23.67124935,91.0020694,29,B,LRP030a,II,C,
N102,3000090,bridge,USUP - PUR BOX CULVERT,23.6780549,91.01269445,13,C,LRP031c,II,C,
N102,3000096,bridge,NAYAPARA BOX CULVERT,23.6841108,91.02174935,9,C,LRP033a,II,C,
N102,3000099,bridge,SHALGANG BOX CULVERT,23.68591635,91.02649935,9,A,LRP033c,II,C,
N104,4000051,bridge,Bridge start,22.95768055,91.23206875,0,B,LRP022a,III,C,
N104,4000076,bridge,Bridge start,22.9459997,91.12334655,0,B,LRP034b,III,C,
N104,4000083,bridge,Bridge start,22.9446802,91.1097639,0,B,LRP035a,III,C,
N104,4000091,bridge,CONTRACTOR MOSJIDE BOX CULNERT,22.9360274,91.1042222,6,A,LRP037a,III,C,
N104,4000095,bridge,AKLASPUR CULVERT,22.92261045,91.10269445,3,B,LRP038a,III,C,
N1,1000067,bridge,Bridge start,23.62336045,90.6061111,0,B,LRP022a,II,B,
N1,1000084,bridge,Bridge end,23.58024935,90.64005525,0,B,LRP028a,II,B,
N1,1000089,bridge,Anarpara Bridge (L) (4 bridges at crossing),23.57199935,90.645208,30,A,LRP029a,II,B,
N1,1000093,bridge,Bridge start,23.56380555,90.6503333,0,B,LRP030a,II,B,
N1,1000096,bridge,Alipur bridge(R) (4 bridges at crossing),23.56031945,90.6543611,27,A,LRP030c,II,B,
N1,1000101,bridge,Bhaber char Bridge(R) (4 bridges at crossing),23.5563333,90.659,30,A,LRP031b,II,B,
N1,1000107,bridge,NOYAPARA,23.5471802,90.66972155,5,A,LRP033a,II,B,
N1,1000132,bridge,Bridge start,23.5293882,90.7515,0,B,LRP042a,II,B,
N1,1000146,bridge,Bridge start,23.5309021,90.80425,0,B,LRP048a,II,B,
N1,1000151,bridge,Bridge start,23.5346941,90.825041,0,B,LRP050a,II,B,
N1,1000161,bridge,Bridge start,23.51320835,90.87047155,0,B,LRP056a,II,B,
N1,1000190,bridge,Bridge start,23.48899965,91.0121389,0,B,LRP072a,II,B,
N2,2000330,bridge,Bridge start,24.05318055,91.24138855,0,B,LRP101a,II,B,
N2,2000346,bridge,KHATABARI CULVERT,24.0850552,91.2836941,10,A,LRP107a,II,B,
N2,2000350,bridge,Bridge start/ Start of Habiganj road Division / Bridge start/ Start of Habiganj road Division,24.0943608,91.2897358,0,B,LRP108a,II,B,
N102,3000020,bridge,RAMPUR,23.5323882,91.0834719,4,C,LRP007a,II,B,
N102,3000023,bridge,Barura Bridge (2 bridges at crossing),23.54224965,91.07419375,18,A,LRP008a,II,B,
N102,3000027,bridge,KONSENOGOR BOX CUL,23.5501111,91.0661389,3,A,LRP009a,II,B,
N102,3000032,bridge,HATAMARA BOX CULVERT.,23.5605,91.0553056,3,A,LRP011a,II,B,
N102,3000044,bridge,BARRA BOX CULVERT,23.5911108,91.0077778,6,C,LRP018a,II,B,
N102,3000057,bridge,Bangl Bari Bridge (2 bridges at crossing),23.6237632,90.97270765,33,A,LRP023a,II,B,
N102,3000062,bridge,Compani Ganj Bridge (2 bridges at crossing),23.6346802,90.970791,114,A,LRP024b,II,B,
N102,3000127,bridge,MURPUR BOX,23.71490275,91.0632639,12,A,LRP038b,II,B,
N102,3000132,bridge,MOKIMPUR RCC GRIDER BRIDGE,23.72208265,91.07209655,17,B,LRP039a,II,B,
N102,3000146,bridge,CHOTICHOIMOHARI RCC GIDER BRIGDE (2 bridges at crossing),23.7555278,91.09827745,46,A,LRP044a,II,B,
N102,3000149,bridge,MIRPUKUR CULVERT,23.75733284,91.1004282,19,B,LRP044c,II,B,
N102,3000155,bridge,Kharer bazar Bridge (2 bridges at crossing),23.76991038,91.11487448,17,A,LRP046a,II,B,
N102,3000163,bridge,MONKASHA RCC GRIDER BRIDGE,23.78448575,91.13315215,16,B,LRP049a,II,B,
N102,3000168,bridge,Saidabad Bridge (2 bridges at crossing),23.79331592,91.14675188,21,A,LRP050b,II,B,
N102,3000194,bridge,AWARON CULVERT,23.86070835,91.1550972,3,B,LRP058a,II,B,
N102,3000199,bridge,Bridge start,23.86638885,91.14793025,0,B,LRP059b,II,B,
N2,2000673,bridge,AUGON BOX CULVERT,24.52137435,91.5895691,4,A,LRP174a,I,B,
N2,2000677,bridge,ANGOOM BOX CUL,24.5248604,91.5916108,1,A,LRP174d,I,B,
N2,2000693,bridge,DHAKA SHAISTAGANG HALIGAN,24.5386941,91.6030556,2,A,LRP176c,I,B,
N2,2000695,bridge,SHADUGHAT,24.5398608,91.6040556,6,A,LRP176d,I,B,
N2,2000697,bridge,SHADARGHAT 1,24.5417219,91.6045278,7,A,LRP176e,I,B,
N2,2000702,bridge,Bizrapar Bridge (2 bridges at crossing),24.54799965,91.6055,140,A,LRP177b,I,B,
N2,2000706,bridge,Bridge start,24.55194445,91.60543055,0,B,LRP178a,I,B,
N2,2000709,bridge,VHARDEV CULVERT,24.5538889,91.605125,2,A,LRP178c,I,B,
N2,2000712,bridge,DHAKA KHATENPASS BRIDGE,24.5565,91.6041667,2,A,LRP178e,I,B,
N2,2000716,bridge,Dhaka Katpass Bridge (2 bridges at crossing),24.5628333,91.60275,22,A,LRP179a,I,B,
N2,2000718,bridge,Bridge start,24.5662639,91.6028333,0,B,LRP179b,I,B,
N2,2000722,bridge,RATUM PUR (3) (2 bridges at crossing),24.57082228,91.60283594,14,A,LRP180a,I,B,
N2,2000744,bridge,Minazpur Bridge,24.60140275,91.6154861,73,A,LRP184a,I,B,
N2,2000752,bridge,SYADPUR,24.6105556,91.6265549,7,A,LRP186a,I,B,
N2,2000757,bridge,Umarpur Bridge (2 bridges at crossing),24.6134722,91.6350691,60,A,LRP186e,I,B,
N2,2000761,bridge,Chaar Nopul (2 bridges at crossing),24.612875,91.64426355,15,A,LRP187a,I,B,
N2,2000767,bridge,Aminnagar Bridge (2 bridges at crossing),24.61699935,91.660125,30,A,LRP189a,I,B,
N2,2000771,bridge,GRAM SHERPUR BRIDGE (2 bridges at crossing),24.6238882,91.67033265,17,A,LRP190a,I,B,
N2,2000778,bridge,Bridge start,24.62995765,91.68033265,0,B,LRP192a,I,B,
N2,2000783,bridge,SHALIPUR BRIDGE (2 bridges at crossing),24.6427219,91.69144415,161,C,LRP194a,I,B,
N2,2000786,bridge,Katen Bridge (2 bridges at crossing),24.64904135,91.69843025,26,A,LRP194c,I,B,
N2,2000796,bridge,Onish Mill Bridge (2 bridges at crossing),24.671291,91.7153889,22,A,LRP198a,I,B,
N2,2000801,bridge,Narkila Bridge (2 bridges at crossing),24.68020765,91.72305485,25,A,LRP199a,I,B,
N2,2000806,bridge,BROMMON GRAM (2 bridges at crossing),24.68654135,91.7243743,24,A,LRP200a,I,B,
N2,2000816,bridge,GOYNAGAT BOXCULVERT,24.7098056,91.7382497,8,A,LRP203a,I,B,
N2,2000820,bridge,TAJPUR BAZAR BOX,24.722916,91.7530556,3,A,LRP205a,I,B,
N2,2000824,bridge,CHANDPUR BOX CULVERT,24.7284993,91.7615,7,A,LRP206a,I,B,
N2,2000826,bridge,SIMMANPUR BOX CULVERT,24.7322493,91.7669438,2,A,LRP206b,I,B,
N2,2000829,bridge,KASIKAPON BOX CULVERT,24.7350274,91.7702216,6,A,LRP207a,I,B,
N2,2000832,bridge,MOHAMMAD PUR CULVERT,24.7436663,91.7768327,2,A,LRP208a,I,B,
N2,2000836,bridge,DAYA MIR BOX CULVERT,24.7522778,91.7813327,2,A,LRP209b,I,B,
N2,2000846,bridge,KURRA BAZR BOX CULVERT,24.7847219,91.7849719,2,A,LRP213a,I,B,
N2,2000848,bridge,KURRZ BAZAR BOX CULVERT,24.7890552,91.7876386,2,A,LRP213b,I,B,
N2,2000851,bridge,AHAMAD NAGAR CULVERT,24.7915274,91.7891108,2,A,LRP214a,I,B,
N2,2000853,bridge,NAZIR BAZAR,24.7961386,91.7895274,12,C,LRP214b,I,B,
N2,2000856,bridge,KUTUB PUR BOX CULVERT,24.8055,91.7906663,2,A,LRP215a,I,B,
N2,2000859,bridge,ROSID PUR,24.8075833,91.7912774,2,A,LRP216a,I,B,
N2,2000862,bridge,ROSID PUR BOX CULVERT,24.8118056,91.7924163,19,A,LRP216c,I,B,
N2,2000867,bridge,LALA BAZAR START,24.8267216,91.813,2,A,LRP219a,I,B,
N2,2000870,bridge,LALA BAZAR (2 bridges at crossing),24.83624965,91.8203049,12,B,LRP220a,I,B,
N2,2000874,bridge,LALA BAZAR,24.8402774,91.8217216,2,A,LRP221a,I,B,
N2,2000877,bridge,LALA BAZAR,24.8484997,91.8255271,3,B,LRP222a,I,B,
N2,2000879,bridge,LALA BAZAR,24.8515556,91.8296104,12,B,LRP222b,I,B,
N2,2000882,bridge,KETLIL CULVERT,24.8584167,91.8384719,3,A,LRP223a,I,B,
N2,2000885,bridge,KETLI 2 CULVERT,24.85925,91.8412497,3,A,LRP224a,I,B,
N2,2000888,bridge,Teli Bazar Bridge,24.861,91.84704135,41,A,LRP224c,I,B,
N2,2000892,bridge,BALIADIKONE CULVERT,24.8635278,91.8519444,2,A,LRP225a,I,B,
N2,2000896,bridge,CHANDRIPUR,24.8681382,91.8601111,2,A,LRP226a,I,B,
N2,2000898,bridge,Daudpur,24.868416,91.8613611,2,A,LRP226b,I,B,
N2,2000902,bridge,FIRUSPUR (2),24.8740271,91.8677493,2,B,LRP227a,I,B,
N2,2000905,bridge,SYHAT RAIL LINE OVER BRIDGE (2 bridges at crossing),24.8772216,91.87362435,21,A,LRP228a,I,B,
N2,2000910,bridge,KADAMTALY CULVERT,24.878666,91.8771382,10,A,LRP229a,I,B,
N2,2000912,bridge,SHAHJALAL BRIDGE (2 bridges at crossing),24.88147155,91.87897155,298,B,LRP229b,I,B,
N2,2001010,bridge,Korish Bridge (2 bridges at crossing),25.00193055,92.0481108,82,B,LRP253a,I,B,
N2,2001015,bridge,SALI RCC GIDER BRIDGE (2 bridges at crossing),25.0142222,92.0613889,36,B,LRP255a,I,B,
N2,2001020,bridge,GOYALI RCC GIDER BRIDGE (2 bridges at crossing),25.02923545,92.0719299,37,B,LRP257a,I,B,
N2,2001024,bridge,DAMRI RCC GIDER BRIDGE (2 bridges at crossing),25.03738855,92.0836108,56,A,LRP258a,I,B,
N2,2001029,bridge,DIGIR PAR,25.0478886,92.0959441,12,A,LRP260a,I,B,
N2,2001032,bridge,DAMA BOX CULVERT,25.05306974,92.10166863,6,A,LRP261a,I,B,
N2,2001034,bridge,SRIKAL BOX CULVERT,25.0551111,92.1038889,9,A,LRP261b,I,B,
N2,2001037,bridge,borbos bazer,25.0588056,92.1061389,9,A,LRP262a,I,B,
N2,2001041,bridge,borbos bazer (2 bridges at crossing),25.0676799,92.11069445,22,A,LRP263b,I,B,
N2,2001046,bridge,Sari Ghat Bridge (2 bridges at crossing),25.083041,92.1155139,21,A,LRP265a,I,B,
N2,2001051,bridge,SARIGHUT BRIDGE (2 bridges at crossing),25.0929441,92.11784655,190,A,LRP266a,I,B,
N2,2001055,bridge,Eraboty Bridge (2 bridges at crossing),25.1031389,92.1184577,26,A,LRP267a,I,B,
N207,7000044,bridge,MOTIGAMJ BOX CULVERT,24.3025556,91.6693882,14,A,LRP017b,I,B,
N207,7000047,bridge,LAYER KAL BRIDGE (2 bridges at crossing),24.3035278,91.67423545,24,A,LRP018a,I,B,
N207,7000050,bridge,Mofigauj box culvert,24.3046667,91.6799438,2,A,LRP018c,I,B,
N207,7000053,bridge,Motiganj Bridge (2 bridges at crossing),24.305,91.68161045,46,A,LRP019a,I,B,
N207,7000057,bridge,BILASHER PARA BOX CULVERT,24.3029167,91.690583,23,B,LRP020a,I,B,
N207,7000059,bridge,AMANATUR BOX CULVERT,24.3021389,91.6936386,18,A,LRP020b,I,B,
N207,7000064,bridge,Sreemangal Basti Bridge (2 bridges at crossing),24.30256945,91.71856875,13,A,LRP022a,I,B,
N207,7000068,bridge,SIRMONGAL BOX CULVERT,24.3084167,91.7265827,17,A,LRP023a,I,B,
N207,7000073,bridge,NEAR SHRIMANGAL THANA,24.3146944,91.7338052,3,A,LRP025a,I,B,
N207,7000075,bridge,2 NUMBER POLE,24.3170549,91.7348052,9,B,LRP025b,I,B,
N207,7000077,bridge,3 NUMBER POLE,24.3191104,91.7353886,4,B,LRP025c,I,B,
N207,7000079,bridge,4 NUMBER POLE,24.3209716,91.7358886,6,B,LRP025d,I,B,
N207,7000082,bridge,ZOINAG SARA CULVET,24.3236104,91.7365552,19,A,LRP026a,I,B,
N207,7000084,bridge,6-NUMSER POLE BOX CULVERT,24.3286382,91.7377219,9,B,LRP026b,I,B,
N207,7000087,bridge,ESUPPUR CULVERT,24.3315271,91.7384997,6,B,LRP027a,I,B,
N207,7000090,bridge,Nowgaon Bridge (2 bridges at crossing),24.33869415,91.74099965,16,A,LRP027c,I,B,
N207,7000094,bridge,NOWGAON -2 CULVERT,24.3417497,91.7425552,4,A,LRP028a,I,B,
N207,7000096,bridge,RAZAPUR CULVERT,24.3448886,91.7444997,4,A,LRP028b,I,B,
N207,7000099,bridge,KALIR BAZAR CULVERT,24.3509444,91.7469163,2,A,LRP029a,I,B,
N207,7000101,bridge,KAKIA BAZAR BOX CULVERT,24.3523889,91.7473886,4,A,LRP029b,I,B,
N207,7000105,bridge,SHIRAZ NAGAR,24.3569444,91.7484997,6,C,LRP030a,I,B,
N207,7000107,bridge,LAMWA CULVERT,24.3566389,91.7493052,12,A,LRP030b,I,B,
N207,7000109,bridge,KASIM PUR,24.36486128,91.74964889,12,C,LRP030c,I,B,
N207,7000114,bridge,UTTOR KALAPUR,24.3792216,91.7506389,13,D,LRP032a,I,B,
N207,7000116,bridge,BAYULPUR CULVERT,24.3814716,91.7511389,3,B,LRP032b,I,B,
N207,7000147,bridge,KODALIPUR BOX CULVERT,24.473541,91.76544445,18,C,LRP043b,I,B,
N207,7000171,bridge,Bridge start,24.56102775,91.72358265,0,B,LRP056a,I,B,
N207,7000182,bridge,GORA KHAL BOX CULVERT,24.5762771,91.6929719,4,A,LRP061b,I,B,
N207,7000188,bridge,Bridge start,24.5838191,91.6867913,0,B,LRP063a,I,B,
N207,7000192,bridge,Bridge start,24.59223575,91.68165215,0,B,LRP064a,I,B,
N208,8000003,bridge,BONOVITI BOX CULVERT (2 bridges at crossing),24.4756382,91.7758049,2,A,LRP001a,I,B,
N208,8000005,bridge,BONOVITI BOX CULVERT (2 bridges at crossing),24.4757216,91.7757216,2,A,LRP001b,I,B,
N208,8000008,bridge,PURBO SULTANPUR CULVERT,24.485333,91.7766243,18,A,LRP002a,I,B,
N208,8000013,bridge,MONU PC GIRDER BRIDGE (2 bridges at crossing),24.49427745,91.7738327,133,A,LRP003b,I,B,
N208,8000017,bridge,ISLAMPUR CULVERT,24.5006389,91.7786382,8,A,LRP004a,I,B,
N208,8000020,bridge,ISLAMPUR BOX CULVERT,24.5028056,91.7859441,10,A,LRP005a,I,B,
N208,8000022,bridge,RAISREE CULVERT,24.5036111,91.7904719,2,A,LRP005b,I,B,
N208,8000025,bridge,RAISREE SETU BOX CULVERT,24.5031944,91.7970274,18,A,LRP006a,I,B,
N208,8000028,bridge,TALTOLA BOX CULVERT,24.5027222,91.8011667,14,A,LRP007a,I,B,
N208,8000032,bridge,KADOM HATE BOX CULVERT,24.5007778,91.8167216,12,A,LRP008a,I,B,
N208,8000035,bridge,Longuchhara Bridge (2 bridges at crossing),24.50381945,91.82448545,37,B,LRP009a,I,B,
N208,8000039,bridge,ASRAKAPUL BOX CULVERT,24.5055278,91.828916,9,A,LRP010a,I,B,
N208,8000041,bridge,MOLAL BOX CULVERT,24.5066389,91.8320827,2,A,LRP010b,I,B,
N208,8000044,bridge,CHATURACAHEL BOX CULVERT,24.5126667,91.841833,3,A,LRP011a,I,B,
N208,8000046,bridge,Chatura Box Culvert,24.5134722,91.8431941,2,A,LRP011b,I,B,
N208,8000129,bridge,MIRJAPUR BOX CULVERT,24.6558056,91.9243604,3,A,LRP031a,I,B,
N208,8000134,bridge,PALBARI CULVERT,24.6643611,91.9257771,3,A,LRP032a,I,B,
N208,8000138,bridge,Karmada culvert,24.66812435,91.92748545,3,A,LRP032d,I,B,
N208,8000146,bridge,FARIDPUR BOX CULVERT,24.6827771,91.9303882,3,A,LRP034b,I,B,
N208,8000149,bridge,LUTPURBOX CULVERT,24.6859719,91.930666,6,C,LRP034d,I,B,
N208,8000152,bridge,NURPUR CULVERT,24.6884163,91.9313604,3,A,LRP035a,I,B,
N208,8000154,bridge,NURPUR CULVERT,24.6884719,91.9314438,3,A,LRP035b,I,B,
N208,8000156,bridge,NURPUR BOX CULVERT,24.6897219,91.9317216,6,A,LRP035c,I,B,
N208,8000158,bridge,NURPUR,24.6913608,91.9323327,6,A,LRP035d,I,B,
N208,8000183,bridge,Bridge start,24.75505555,91.91876325,0,B,LRP043b,I,B,
N208,8000188,bridge,Bridge start,24.7695132,91.91405555,0,B,LRP045a,I,B,
N208,8000192,bridge,Bridge start,24.7790688,91.91175,0,B,LRP046a,I,B,
N208,8000197,bridge,Bridge start,24.7930136,91.9097917,0,B,LRP047b,I,B,
N208,8000202,bridge,Bridge start,24.8036738,91.91354727,0,B,LRP049a,I,B,
N208,8000211,bridge,Bridge start,24.83540245,91.89805525,0,B,LRP053a,I,B,
N1,1000272,bridge,Bridge start,23.32412435,91.2791382,0,B,LRP110a,II,B,
N1,1000276,bridge,Bridge start,23.3148472,91.28451355,0,B,LRP111a,II,B,
N1,1000299,bridge,Bridge start,23.24824965,91.30984725,0,B,LRP119b,II,B,
N104,4000018,bridge,SILONIA PC GIDER BRIDGE (2 bridges at crossing),22.98223545,91.3373191,87,A,LRP008b,II,B,
N104,4000027,bridge,Matuvhuia Bridge (2 bridges at crossing),22.95369445,91.32595765,49,A,LRP011a,II,B,
N208,8000163,bridge,Bridge start,24.6971247,91.93112435,0,B,LRP036a,I,B,
N208,8000169,bridge,Bridge start,24.71783265,91.9283188,0,B,LRP038a,I,B,
N208,8000177,bridge,Bridge start,24.74212465,91.9232771,0,B,LRP041a,I,B,
N1,1000425,bridge,CHAIRMEN BARI BOX CULVERT,22.8731382,91.5414441,2,A,LRP173a,II,B,
N1,1000445,bridge,MASTARI HAGOR 3 CULVERT,22.8432497,91.5482219,2,A,LRP176d,II,B,
N1,1000450,bridge,PURPU DURGAPURE BOX CUL,22.8239438,91.5528333,12,C,LRP178a,II,B,
N1,1000474,bridge,VARTAKA BOX CULVERT,22.75256945,91.58941635,13,A,LRP187a,II,B,
N1,1000501,bridge,TARAT BOX CULVERT,22.6769438,91.6268327,6,A,LRP197a,II,B,
N1,1000512,bridge,RONA SORA CULVERT,22.6543889,91.6381386,3,A,LRP200a,II,B,
N1,1000522,bridge,UTTOR SITAKONDO BAZAR BOX CULVERT,22.625916,91.6541389,6,B,LRP203b,II,B,
N1,1000527,bridge,MOHADAB PUR BOX CULVERT,22.6187632,91.6573611,3,A,LRP204c,II,B,
N1,1000530,bridge,MOHADAB PUR BOX CULVERT,22.6175271,91.65825,3,A,LRP204f,II,B,
N1,1000541,bridge,HATILOTA BOX CULVERT,22.5942219,91.6737771,4,A,LRP207d,II,B,
N1,1000546,bridge,Bridge start,22.583583,91.67852715,0,B,LRP209a,II,B,
N1,1000552,bridge,Bridge start,22.57312435,91.68313825,0,B,LRP210a,II,B,
N1,1000556,bridge,R. R TEXTAIL BOX CULVERT,22.5664722,91.6851663,4,A,LRP211a,II,B,
N1,1000558,bridge,Bridge start,22.56406945,91.6859302,0,B,LRP211b,II,B,
N1,1000564,bridge,Bridge start,22.55023615,91.690333,0,B,LRP213a,II,B,
N1,1000572,bridge,Bridge start,22.5193407,91.70538219,0,B,LRP216a,II,B,
N1,1000576,bridge,Bridge start,22.51636115,91.70666665,0,B,LRP217a,II,B,
N1,1000580,bridge,Chotokumir Bridge (2 bridges at crossing),22.51295835,91.70815275,41,A,LRP217d,II,B,
N1,1000584,bridge,Bridge start,22.50940275,91.70966665,0,B,LRP218a,II,B,
N1,1000587,bridge,ROYL CIMINT GATE CULVETRT,22.507375,91.71059725,4,A,LRP218c,II,B,
N1,1000592,bridge,Bridge start,22.49686075,91.71559725,0,B,LRP219a,II,B,
N1,1000599,bridge,Bridge start,22.477416,91.72108265,0,B,LRP221b,II,B,
N1,1000606,bridge,Bridge start,22.4587361,91.730416,0,B,LRP224a,II,B,
N1,1000611,bridge,Bridge start,22.4423608,91.736708,0,B,LRP226a,II,B,
N1,1000616,bridge,Bridge start,22.43059655,91.74162465,0,B,LRP227b,II,B,
N1,1000621,bridge,Bridge start,22.418416,91.75056945,0,B,LRP229a,II,B,
N1,1000656,bridge,Bridge start,22.34254135,91.8531111,0,B,LRP247a,II,B,
N1,1000660,bridge,HAFAS BAGAR BRIDGE (2 bridges at crossing),22.33819494,91.85379224,38,B,LRP248a,II,B,
N1,1000663,bridge,RAZAKATI BRIDGE (2 bridges at crossing),22.337208,91.8544028,39,B,LRP248c,II,B,
N1,1000669,bridge,Bridge end,22.3183191,91.85445835,0,B,LRP250a,II,B,
N1,1000710,bridge,Patiya Bridge (2 bridges at crossing),22.3009861,91.9644167,50,B,LRP265a,II,B,
N1,1000722,bridge,Srimi Bridge (2 bridges at crossing),22.2864441,91.9913469,61,B,LRP269a,II,B,
N1,1000871,bridge,Rataykul Bridge (2 bridges at crossing),21.96194445,92.06340275,22,A,LRP313a,II,B,
N1,1000874,bridge,BONPUKR PARA BOX CULVERT,21.9590833,92.0653889,8,A,LRP313c,II,B,
N1,1000878,bridge,SANTI RCC GIDER BRIDGE (2 bridges at crossing),21.95152775,92.0678604,22,A,LRP314b,II,B,
N1,1000916,bridge,ALIPUR BOX CULVERT,21.8526111,92.0609722,14,A,LRP326a,II,B,
N1,1000918,bridge,HARBANG,21.8505,92.0609444,2,A,LRP326b,II,B,
N1,1000937,bridge,BANIYAR CHORA,21.80308335,92.0772632,14,A,LRP331b,II,B,
N1,1000942,bridge,NOL BELA BOX CULVERT,21.7873886,92.0788882,21,A,LRP333a,II,B,
N1,1000951,bridge,DIDDA BAZAR BOX CULVERT,21.7732771,92.0837219,16,A,LRP335d,II,B,
N1,1000954,bridge,Bridge start,21.77026325,92.0805271,0,B,LRP336a,II,B,
N1,1001003,bridge,Bridge start,21.61697155,92.0679021,0,B,LRP354a,II,B,
N1,1001030,bridge,Goro Bazar Bridge (2 bridges at crossing),21.54827745,92.0670549,45,A,LRP362c,II,B,
N1,1001038,bridge,KALIRCHARA BOX CULVERT,21.52338825,92.065625,8,A,LRP365c,II,B,
N1,1001059,bridge,JOARIANALA BAZAR PC GIDER BRIDGE(L) (3 bridges at crossing),21.47101325,92.1000554,58,A,LRP373a,II,B,
N1,1001079,bridge,RAMU BRAC OFFICE,21.4310271,92.0961941,7,A,LRP378a,II,B,
N1,1001081,bridge,RAMU BY PASS MORE,21.4290271,92.0954997,4,A,LRP378b,II,B,
N1,1001084,bridge,RAMU MOUR BOX CULVDERT,21.4283604,92.0941663,13,A,LRP378d,II,B,
N1,1001087,bridge,ROMA CALLAGE BOX CULVERT,21.4279021,92.0894997,19,A,LRP379a,II,B,
N1,1001090,bridge,ROMA TECHIPUL,21.4271104,92.084083,8,A,LRP379c,II,B,
N1,1001093,bridge,SAMBAR PUL CULVERT,21.4267771,92.0804716,7,A,LRP380a,II,B,
N1,1001095,bridge,CHAKMARKOOL,21.4264716,92.0767771,12,A,LRP380b,II,B,
N1,1001098,bridge,CHAKMAR KOOL BOX CULVERT,21.427416,92.0707216,9,A,LRP381a,II,B,
N1,1001101,bridge,KHURUTIA BOX CULVERT,21.4270827,92.0632778,2,A,LRP382a,II,B,
N1,1001103,bridge,KHURULIA CULVERT,21.4273327,92.0608333,7,A,LRP382b,II,B,
N1,1001105,bridge,KHURULIA SCHOOL BOX CULVERT,21.4278882,92.0576667,17,A,LRP382c,II,B,
N1,1001107,bridge,KHURULIA SCHOOL BOX CULVERT,21.4280549,92.0554167,19,A,LRP382d,II,B,
N1,1001110,bridge,KHURULIA CHAIRMAN PARA BOX CULVERT,21.4280549,92.0529444,7,A,LRP383a,II,B,
N1,1001112,bridge,Sarkarpara Bridge (2 bridges at crossing),21.4275132,92.04841635,13,A,LRP383b,II,B,
N1,1001116,bridge,WEST DOVGE BOX CULVERT,21.4295549,92.044083,11,A,LRP384a,II,B,
N1,1001118,bridge,MUKTAR KUL,21.4298049,92.0392774,9,A,LRP384b,II,B,
N1,1001122,bridge,BAKKHALI BRIDGE (2 bridges at crossing),21.42976325,92.031041,148,A,LRP385b,II,B,
N1,1001125,bridge,MOHURI RARA BOX,21.430416,92.0293049,4,A,LRP385d,II,B,
N1,1001128,bridge,RABAR DAM BOX,21.4298882,92.0279716,10,A,LRP386a,II,B,
N1,1001130,bridge,LINK ROAD CULVERT,21.4262493,92.0235827,9,A,LRP386b,II,B,
N1,1001134,bridge,BASIC ARIA (1),21.4225549,92.0274438,11,C,LRP387a,II,B,
N1,1001143,bridge,SHORAR COOL,21.4120556,92.039583,8,A,LRP389b,II,B,
N1,1001145,bridge,SOUTH MITTA CHORI,21.41133335,92.043958,8,B,LRP389c,II,B,
N1,1001150,bridge,SOUTH MITHACHARI,21.41025,92.0480552,2,B,LRP390a,II,B,
N1,1001155,bridge,SOUTH MITHACHARI,21.4079722,92.056,3,A,LRP391a,II,B,
N1,1001162,bridge,CHALIYA TOLI -2 ARCH MASONRY,21.39863855,92.06656945,1,C,LRP392c,II,B,
N1,1001168,bridge,PANAR CHORH -3 SLAB CULVERT,21.38902745,92.06874935,3,C,LRP393b,II,B,
N1,1001172,bridge,PANCHARA SLAB CULVERT,21.3873052,92.0697771,3,B,LRP394a,II,B,
N1,1001174,bridge,PANCHARA SLAB CULVERT,21.3858886,92.0704438,2,C,LRP394b,II,B,
N1,1001176,bridge,PANAR CHORA SLAB CULVERT,21.384583,92.0704993,3,B,LRP394c,II,B,
N1,1001179,bridge,PANCHARA SLAB CULVERT,21.3826938,92.0710271,2,A,LRP394e,II,B,
N1,1001182,bridge,PANCHORI,21.3811104,92.0710827,1,A,LRP394g,II,B,
N1,1001185,bridge,DALA-2 SLAB CULVERT,21.378916,92.0703327,2,A,LRP395a,II,B,
N1,1001187,bridge,DALA-3 SLAB CULVERT,21.3775827,92.0703604,2,C,LRP395b,II,B,
N1,1001190,bridge,DALA SLAB CULVERT,21.3762216,92.0718049,3,A,LRP395d,II,B,
N106,9000132,bridge,GODAR PAR ARCH,22.5406108,91.96919375,12,A,LRP032c,II,B,
N106,9000136,bridge,AMTULA BOX,22.5412497,91.973166,3,B,LRP033a,II,B,
N106,9000145,bridge,Morartak,22.5389719,91.9820271,5,C,LRP034f,II,B,
N106,9000149,bridge,MONARTECK CULVERT,22.5404163,91.9842774,5,B,LRP035b,II,B,
N106,9000152,bridge,CHAIRMAN GHAT BOX CULVERT(R) (2 bridges at crossing),22.5429719,91.9854163,2,D,LRP035d,II,B,
N106,9000158,bridge,BETBUNIA BOX CULVERT,22.5464441,91.9896941,3,A,LRP036c,II,B,
N106,9000162,bridge,BETBEAINA BOX CULVERT,22.5455274,91.9956386,12,A,LRP036f,II,B,
N106,9000168,bridge,SUP NALA SUBMARGE,22.5455274,92.0050278,4,A,LRP037c,II,B,
N106,9000172,bridge,SIKDAR PARA (2) CULVERT,22.5439163,92.0099167,3,A,LRP038b,II,B,
N106,9000194,bridge,RANIARAT ARCH,22.57022155,92.040708,3,B,LRP043a,II,B,
N106,9000197,bridge,RANIRAT ARCK,22.5746938,92.0427497,7,A,LRP043c,II,B,
N106,9000203,bridge,GUBTULL CULVERT,22.5807493,92.0488052,3,A,LRP044d,II,B,
N1,1000070,bridge,SANGAKADI CULVERT,23.61999935,90.60827775,6,B,LRP022c,II,,
N1,1000652,bridge,Bridge start,22.35544445,91.85306945,0,B,LRP246a,II,,
N1,1001307,bridge,KOSUKONA,21.2142778,92.166666,2,A,LRP418c,II,,
N1,1001319,bridge,Bridge start,21.1924302,92.16962435,0,B,LRP421b,II,,
N1,1001322,bridge,Batukhali Bridge (2 bridges at crossing),21.1906108,92.167916,9,A,LRP421d,II,,
N1,1001326,bridge,Bridge start,21.18588855,92.161,0,B,LRP422b,II,,
N1,1001425,bridge,KUTUB DIA PARA CULVERT,21.0938052,92.21190275,3,A,LRP436b,II,,
N1,1001428,bridge,KUTUB - DIA PARA (3),21.0923052,92.2123333,4,A,LRP436d,II,,
N1,1001430,bridge,KANGOR PARA,21.090333,92.2129444,3,A,LRP436e,II,,
N1,1001433,bridge,KHANGOR PRAMARY (2),21.0864997,92.2151111,1,A,LRP437a,II,,
N1,1001438,bridge,KHANCHOR PARA (2),21.0803049,92.2174993,1,A,LRP438a,II,,
N1,1001443,bridge,NAYAPARA,21.0745271,92.2220549,6,A,LRP438e,II,,
N1,1001446,bridge,NOYA PARA,21.0728327,92.2232216,1,A,LRP439a,II,,
N1,1001448,bridge,GIMON KHALI BRIDGE,21.071666,92.2242216,6,B,LRP439b,II,,
N1,1001450,bridge,GIM - MOGARI BRIDGE (2 bridges at crossing),21.0691104,92.2246382,8,C,LRP439c,II,,
N1,1001454,bridge,NINA BAZAR BOX CULVERT,21.0650556,92.2245271,1,A,LRP440a,II,,
N1,1001458,bridge,NOYA BAZAR BRIDGE (2 bridges at crossing),21.05972225,92.2263882,31,B,LRP440d,II,,
N1,1001463,bridge,KHARANG KHALI - BOX CUVERT (1),21.0513611,92.230416,3,C,LRP441b,II,,
N1,1001468,bridge,KHARANG KHAIL,21.0507222,92.2338608,1,C,LRP442b,II,,
N1,1001473,bridge,MOULOVI BAZAR BOX CULVERT,21.0407497,92.2374997,1,C,LRP443a,II,,
N1,1001475,bridge,ALI AXBAR PARA BOX CULVERT,21.036208,92.23977745,6,A,LRP443b,II,,
N1,1001483,bridge,Bridge start,21.0227493,92.2420413,0,B,LRP445a,II,,
N1,1001487,bridge,NILA DOGA PARA BOX CULVERT,21.0169993,92.2440274,3,A,LRP446a,II,,
N1,1001495,bridge,RONGI- KHALI RCC GIDER BRIDGE (2 bridges at crossing),20.998833,92.25383335,12,C,LRP448a,II,,
N1,1001502,bridge,Ladapara Bridge (2 bridges at crossing),20.9776938,92.25068055,37,A,LRP450a,II,,
N1,1001508,bridge,MOSINNI RCC GIDER BRIDGE (2 bridges at crossing),20.9672354,92.2493052,9,B,LRP452a,II,,
N1,1001511,bridge,NOYA PARA CULVERT,20.9648611,92.2515278,1,A,LRP452c,II,,
N1,1001513,bridge,Noya Para Bridge (2 bridges at crossing),20.9621667,92.25297225,9,A,LRP452d,II,,
N1,1001524,bridge,DONDO MIA BOX CULVERT,20.948208,92.25911115,2,A,LRP454b,II,,
N1,1001527,bridge,DOMMO MIA BOX CULVERT,20.9459163,92.2603333,1,A,LRP454d,II,,
N1,1001531,bridge,DONDO MIA CHAK POST BRIDGE (2 bridges at crossing),20.9372497,92.26240275,51,B,LRP455b,II,,
N1,1001539,bridge,DONDOMIA,20.92949935,92.264125,3,A,LRP456e,II,,
N1,1001543,bridge,DONMIA,20.92369375,92.2655,3,D,LRP457a,II,,
N1,1001546,bridge,KARUNTON BOX CULVERT,20.919541,92.2684438,1,A,LRP457c,II,,
N1,1001549,bridge,KARUNTON BOX CULVERT,20.9189993,92.2686382,1,A,LRP457e,II,,
N1,1001552,bridge,Karumtoli choto(1) Bridge (2 bridges at crossing),20.9176382,92.2692493,6,A,LRP458a,II,,
N1,1001554,bridge,KAKUM TOLI CHACK BOX CULVERT,20.91556945,92.27059655,1,B,LRP458b,II,,
N1,1001559,bridge,Karumtoli(1) Bridge (2 bridges at crossing),20.9123889,92.2729716,34,A,LRP458f,II,,
N1,1001562,bridge,BAROY TOLI RCC GIDER BRIDGE (2 bridges at crossing),20.90872225,92.2752632,30,A,LRP459a,II,,
N1,1001566,bridge,BORYTOLI SLAB CULVERT,20.9059444,92.2771104,3,A,LRP459d,II,,
N1,1001569,bridge,Gilatoli (1) Bridge (2 bridges at crossing),20.9047222,92.2779716,18,A,LRP460a,II,,
N1,1001571,bridge,Baraytoli (3) Bridge (2 bridges at crossing),20.9033333,92.2789438,6,A,LRP460b,II,,
N1,1001574,bridge,Bridge start,20.9002222,92.2808466,0,B,LRP460d,II,,
N1,1001578,bridge,Bridge start,20.8983469,92.2830132,0,B,LRP460g,II,,
N1,1001584,bridge,Naitom Para (2) Bridge (2 bridges at crossing),20.89684685,92.285583,15,A,LRP461c,II,,
N1,1001588,bridge,Naitong Para (3) Bridge (2 bridges at crossing),20.8953608,92.2877219,9,A,LRP461f,II,,
N1,1001590,bridge,Naitong Para (3) Bridge (2 bridges at crossing),20.8948052,92.2881941,9,A,LRP461g,II,,
N1,1001592,bridge,Naitong Para (3) Bridge (2 bridges at crossing),20.89401355,92.28884685,9,A,LRP461h,II,,
N1,1001598,bridge,Naitom Para(4) Bridge (2 bridges at crossing),20.89190245,92.29173575,9,A,LRP462a,II,,
N1,1001602,bridge,Bridge start,20.88887465,92.29831915,0,B,LRP463a,II,,
N1,1001609,bridge,Bridge start,20.87667985,92.2978886,0,B,LRP465a,II,,
N1,1001614,bridge,Bridge start,20.86484725,92.2982219,0,B,LRP466b,II,,
